[{"id":2,"lat_lon":{"lat":40.7208017,"lng":-74.0048389},"formatted_address":"283 W Broadway, New York, NY 10013, USA"},{"id":19,"lat_lon":{"lat":40.7272199,"lng":-74.0013237},"formatted_address":"155 Sullivan St, New York, NY 10012, USA"},{"id":15,"lat_lon":{"lat":40.73605209999999,"lng":-74.0020789},"formatted_address":"224 Waverly Pl, New York, NY 10014, USA"},{"id":17,"lat_lon":{"lat":40.7237496,"lng":-73.992395},"formatted_address":"273 Bowery, New York, NY 10002, USA"},{"id":26,"lat_lon":{"lat":40.7336675,"lng":-74.0037775},"formatted_address":"83 Christopher St, New York, NY 10014, USA"},{"id":8,"lat_lon":{"lat":40.71371430000001,"lng":-73.983033},"formatted_address":"292 Henry St, New York, NY 10002, USA"},{"id":3,"lat_lon":{"lat":40.7360951,"lng":-74.0027905},"formatted_address":"232 W 11th St, New York, NY 10014, USA"},{"id":23,"lat_lon":{"lat":40.7237496,"lng":-73.992395},"formatted_address":"273 Bowery, New York, NY 10002, USA"},{"id":28,"lat_lon":{"lat":40.7237496,"lng":-73.992395},"formatted_address":"273 Bowery, New York, NY 10002, USA"},{"id":0,"lat_lon":{"lat":40.7237496,"lng":-73.992395},"formatted_address":"273 Bowery, New York, NY 10002, USA"},{"id":6,"lat_lon":{"lat":40.7237496,"lng":-73.992395},"formatted_address":"273 Bowery, New York, NY 10002, USA"},{"id":16,"lat_lon":{"lat":40.7272453,"lng":-74.001408},"formatted_address":"154 Sullivan St, New York, NY 10012, USA"},{"id":22,"lat_lon":{"lat":40.7337412,"lng":-74.0036168},"formatted_address":"81 Christopher St, New York, NY 10014, USA"},{"id":18,"lat_lon":{"lat":40.7326297,"lng":-74.0006787},"formatted_address":"371 6th Ave, New York, NY 10014, USA"},{"id":12,"lat_lon":{"lat":40.7336975,"lng":-74.0035917},"formatted_address":"81 Christopher St, New York, NY 10014, USA"},{"id":7,"lat_lon":{"lat":40.7325862,"lng":-74.0067038},"formatted_address":"487 Hudson St, New York, NY 10014, USA"},{"id":5,"lat_lon":{"lat":40.7206583,"lng":-73.9980848},"formatted_address":"253 Centre St, New York, NY 10013, USA"},{"id":13,"lat_lon":{"lat":40.7355145,"lng":-74.0031001},"formatted_address":"50 Perry St, New York, NY 10014, USA"},{"id":10,"lat_lon":{"lat":40.7134775,"lng":-73.9906663},"formatted_address":"141 Henry St, New York, NY 10002, USA"},{"id":14,"lat_lon":{"lat":40.7360951,"lng":-74.0027905},"formatted_address":"232 W 11th St, New York, NY 10014, USA"},{"id":25,"lat_lon":{"lat":40.7360951,"lng":-74.0027905},"formatted_address":"232 W 11th St, New York, NY 10014, USA"},{"id":9,"lat_lon":{"lat":40.7360951,"lng":-74.0027905},"formatted_address":"232 W 11th St, New York, NY 10014, USA"},{"id":1,"lat_lon":{"lat":40.7360951,"lng":-74.0027905},"formatted_address":"232 W 11th St, New York, NY 10014, USA"},{"id":24,"lat_lon":{"lat":40.7360951,"lng":-74.0027905},"formatted_address":"232 W 11th St, New York, NY 10014, USA"},{"id":21,"lat_lon":{"lat":40.7360951,"lng":-74.0027905},"formatted_address":"232 W 11th St, New York, NY 10014, USA"},{"id":27,"lat_lon":{"lat":40.7287585,"lng":-74.00455800000002},"formatted_address":"220 W Houston St, New York, NY 10014, USA"},{"id":11,"lat_lon":{"lat":40.7287585,"lng":-74.00455800000002},"formatted_address":"220 W Houston St, New York, NY 10014, USA"},{"id":4,"lat_lon":{"lat":40.7287585,"lng":-74.00455800000002},"formatted_address":"220 W Houston St, New York, NY 10014, USA"},{"id":20,"lat_lon":{"lat":40.7332774,"lng":-73.99463109999999},"formatted_address":"7 E 10th St, New York, NY 10003, USA"}]