[{"geoLocationID":100,"formattedAddress":"St. Andrew's Church, 20 Cardinal Hayes Pl, New York, NY 10007, USA","lat":40.7133628,"lon":-74.0026069},{"geoLocationID":101,"formattedAddress":"125 Barclay St, New York, NY 10007, USA","lat":40.7144918,"lon":-74.0130278},{"geoLocationID":102,"formattedAddress":"49 Fulton St, New York, NY 10038, USA","lat":40.7082017,"lon":-74.0038005},{"geoLocationID":103,"formattedAddress":"22 Barclay St, New York, NY 10007, USA","lat":40.7123432,"lon":-74.00958480000001},{"geoLocationID":104,"formattedAddress":"44 John St, New York, NY 10038, USA","lat":40.7091383,"lon":-74.0080928},{"geoLocationID":105,"formattedAddress":"283 W Broadway, New York, NY 10013, USA","lat":40.7208017,"lon":-74.0048389},{"geoLocationID":106,"formattedAddress":"29 Mott St, New York, NY 10013, USA","lat":40.7147993,"lon":-73.9991178},{"geoLocationID":107,"formattedAddress":"22 Barclay St, New York, NY 10007, USA","lat":40.712362,"lon":-74.009564}]